{
  "type": "FeatureCollection",
  "features": [
    {
      "type": "Feature",
      "geometry": {
        "type": "Point",
        "coordinates": [
          120.2270277,
          22.9997281
        ]
      },
      "properties": {
        "id": 1,
        "category": "走失",
        "name": "LaLa",
        "img": "https://stylish-product.s3.amazonaws.com/pets-images/lala.jpg",
        "city": "台南市",
        "district": "永康區"
      }
    },
    {
      "type": "Feature",
      "geometry": {
        "type": "Point",
        "coordinates": [
          121.2989587,
          24.9917033
        ]
      },
      "properties": {
        "id": 2,
        "category": "送養",
        "name": "ChiChi",
        "img": "https://stylish-product.s3.amazonaws.com/pets-images/lala.jpg",
        "city": "桃園市",
        "district": "中壢區"
      }
    },
    {
      "type": "Feature",
      "geometry": {
        "type": "Point",
        "coordinates": [
          121.2989587,
          24.9917033
        ]
      },
      "properties": {
        "id": 4,
        "category": "送養",
        "name": "ChiChi",
        "img": "https://stylish-product.s3.amazonaws.com/pets-images/lala.jpg",
        "city": "新竹市",
        "district": "東區"
      }
    },
    {
      "type": "Feature",
      "geometry": {
        "type": "Point",
        "coordinates": [
          120.6746161,
          24.1625337
        ]
      },
      "properties": {
        "id": 17,
        "category": "走失",
        "name": "DaDa",
        "img": "https://stylish-product.s3.amazonaws.com/pets-images/images.jpg",
        "city": "台中市",
        "district": "北區"
      }
    },
    {
      "type": "Feature",
      "geometry": {
        "type": "Point",
        "coordinates": [
          120.9992179,
          24.6006322
        ]
      },
      "properties": {
        "id": 38,
        "category": "送養",
        "name": "水水",
        "img": "https://stylish-product.s3.amazonaws.com/pets-images/download%20%281%29.jpg",
        "city": "苗栗縣",
        "district": "南庄鄉"
      }
    },
    {
      "type": "Feature",
      "geometry": {
        "type": "Point",
        "coordinates": [
          120.9992179,
          24.6006322
        ]
      },
      "properties": {
        "id": 39,
        "category": "送養",
        "name": "水水",
        "img": "https://stylish-product.s3.amazonaws.com/pets-images/download%20%281%29.jpg",
        "city": "苗栗縣",
        "district": "南庄鄉"
      }
    },
    {
      "type": "Feature",
      "geometry": {
        "type": "Point",
        "coordinates": [
          121.7696964,
          24.8214206
        ]
      },
      "properties": {
        "id": 40,
        "category": "送養",
        "name": "小新",
        "img": "https://stylish-product.s3.ap-northeast-1.amazonaws.com/pets-images/download%20%284%29.jpg",
        "city": "宜蘭縣",
        "district": "礁溪鄉"
      }
    },
    {
      "type": "Feature",
      "geometry": {
        "type": "Point",
        "coordinates": [
          121.2958947,
          24.6118547
        ]
      },
      "properties": {
        "id": 41,
        "category": "送養",
        "name": "耿耿",
        "img": "https://stylish-product.s3.ap-northeast-1.amazonaws.com/pets-images/download%20%284%29.jpg",
        "city": "新竹縣",
        "district": "尖石鄉"
      }
    },
    {
      "type": "Feature",
      "geometry": {
        "type": "Point",
        "coordinates": [
          121.4618415,
          25.0114095
        ]
      },
      "properties": {
        "id": 42,
        "category": "送養",
        "name": "幕幕",
        "img": "https://stylish-product.s3.amazonaws.com/pets-images/_-c3920019d1ea2dd9386e59cf8517a16f.jpg",
        "city": "新北市",
        "district": "板橋區"
      }
    },
    {
      "type": "Feature",
      "geometry": {
        "type": "Point",
        "coordinates": [
          121.4853103,
          24.9962178
        ]
      },
      "properties": {
        "id": 43,
        "category": "走失",
        "name": "Nini",
        "img": "https://stylish-product.s3.amazonaws.com/pets-images/images.jpg",
        "city": "新北市",
        "district": "中和區"
      }
    },
    {
      "type": "Feature",
      "geometry": {
        "type": "Point",
        "coordinates": [
          121.4386586,
          25.0848317
        ]
      },
      "properties": {
        "id": 44,
        "category": "走失",
        "name": "Nini",
        "img": "https://stylish-product.s3.ap-northeast-1.amazonaws.com/pets-images/images.jpg",
        "city": "新北市",
        "district": "五股區"
      }
    },
    {
      "type": "Feature",
      "geometry": {
        "type": "Point",
        "coordinates": [
          120.4983956,
          24.1122859
        ]
      },
      "properties": {
        "id": 45,
        "category": "送養",
        "name": "SHOS",
        "img": "https://stylish-product.s3.ap-northeast-1.amazonaws.com/pets-images/_-c3920019d1ea2dd9386e59cf8517a1",
        "city": "彰化縣",
        "district": "和美鎮"
      }
    },
    {
      "type": "Feature",
      "geometry": {
        "type": "Point",
        "coordinates": [
          121.5841779,
          23.9732022
        ]
      },
      "properties": {
        "id": 46,
        "category": "送養",
        "name": "OAOA",
        "img": "https://stylish-product.s3.ap-northeast-1.amazonaws.com/pets-images/cat.jpg",
        "city": "花蓮縣",
        "district": "吉安鄉"
      }
    },
    {
      "type": "Feature",
      "geometry": {
        "type": "Point",
        "coordinates": [
          121.1151517,
          22.9677878
        ]
      },
      "properties": {
        "id": 47,
        "category": "送養",
        "name": "TATA",
        "img": "https://stylish-product.s3.ap-northeast-1.amazonaws.com/pets-images/animals.png",
        "city": "臺東縣",
        "district": "延平鄉"
      }
    },
    {
      "type": "Feature",
      "geometry": {
        "type": "Point",
        "coordinates": [
          121.4386586,
          25.0848317
        ]
      },
      "properties": {
        "id": 48,
        "category": "走失",
        "name": "Nini",
        "img": "https://stylish-product.s3.amazonaws.com/pets-images/images.jpg",
        "city": "新北市",
        "district": "五股區"
      }
    },
    {
      "type": "Feature",
      "geometry": {
        "type": "Point",
        "coordinates": [
          121.5145353,
          25.0103251
        ]
      },
      "properties": {
        "id": 49,
        "category": "走失",
        "name": "HIHI",
        "img": "https://stylish-product.s3.ap-northeast-1.amazonaws.com/pets-images/images.jpg",
        "city": "新北市",
        "district": "永和區"
      }
    },
    {
      "type": "Feature",
      "geometry": {
        "type": "Point",
        "coordinates": [
          121.6397184,
          25.0616059
        ]
      },
      "properties": {
        "id": 50,
        "category": "走失",
        "name": "HIHI",
        "img": "https://stylish-product.s3.amazonaws.com/pets-images/images.jpg",
        "city": "新北市",
        "district": "汐止區"
      }
    },
    {
      "type": "Feature",
      "geometry": {
        "type": "Point",
        "coordinates": [
          120.6631289,
          24.1430604
        ]
      },
      "properties": {
        "id": 51,
        "category": "走失",
        "name": "TIETIE",
        "img": "https://stylish-product.s3.amazonaws.com/pets-images/images.jpg",
        "city": "台中市",
        "district": "西區"
      }
    },
    {
      "type": "Feature",
      "geometry": {
        "type": "Point",
        "coordinates": [
          120.6861019,
          24.1815237
        ]
      },
      "properties": {
        "id": 52,
        "category": "走失",
        "name": "TIETIE",
        "img": "https://stylish-product.s3.amazonaws.com/pets-images/images.jpg",
        "city": "台中市",
        "district": "北屯區"
      }
    },
    {
      "type": "Feature",
      "geometry": {
        "type": "Point",
        "coordinates": [
          120.6861019,
          24.1815237
        ]
      },
      "properties": {
        "id": 53,
        "category": "走失",
        "name": "大白",
        "img": "https://stylish-product.s3.amazonaws.com/pets-images/images.jpg",
        "city": "台中市",
        "district": "北屯區"
      }
    },
    {
      "type": "Feature",
      "geometry": {
        "type": "Point",
        "coordinates": [
          120.6861019,
          24.1815237
        ]
      },
      "properties": {
        "id": 54,
        "category": "走失",
        "name": "TIETIE",
        "img": "https://stylish-product.s3.amazonaws.com/pets-images/images.jpg",
        "city": "台中市",
        "district": "北屯區"
      }
    },
    {
      "type": "Feature",
      "geometry": {
        "type": "Point",
        "coordinates": [
          120.6084832,
          24.1471183
        ]
      },
      "properties": {
        "id": 55,
        "category": "走失",
        "name": "TIETIE",
        "img": "https://stylish-product.s3.ap-northeast-1.amazonaws.com/pets-images/images.jpg",
        "city": "台中市",
        "district": "南屯區"
      }
    },
    {
      "type": "Feature",
      "geometry": {
        "type": "Point",
        "coordinates": [
          121.5427093,
          25.0792018
        ]
      },
      "properties": {
        "id": 56,
        "category": "送養",
        "name": "天天",
        "img": "https://stylish-product.s3.amazonaws.com/pets-images/download%20%283%29.jpg",
        "city": "臺北市",
        "district": "中山區"
      }
    },
    {
      "type": "Feature",
      "geometry": {
        "type": "Point",
        "coordinates": [
          120.7809676,
          22.7509887
        ]
      },
      "properties": {
        "id": 57,
        "category": "拾獲",
        "name": "NONO",
        "img": "https://stylish-product.s3.amazonaws.com/pets-images/lala.jpg",
        "city": "屏東縣",
        "district": "霧臺鄉"
      }
    },
    {
      "type": "Feature",
      "geometry": {
        "type": "Point",
        "coordinates": [
          120.7809676,
          22.7509887
        ]
      },
      "properties": {
        "id": 58,
        "category": "拾獲",
        "name": "NONO",
        "img": "https://stylish-product.s3.ap-northeast-1.amazonaws.com/pets-images/lala.jpg",
        "city": "屏東縣",
        "district": "霧臺鄉"
      }
    },
    {
      "type": "Feature",
      "geometry": {
        "type": "Point",
        "coordinates": [
          121.4618415,
          25.0114095
        ]
      },
      "properties": {
        "id": 59,
        "category": "送養",
        "name": "PEPE",
        "img": "https://stylish-product.s3.amazonaws.com/pets-images/download%20%285%29.jpg",
        "city": "新北市",
        "district": "板橋區"
      }
    },
    {
      "type": "Feature",
      "geometry": {
        "type": "Point",
        "coordinates": [
          121.4618415,
          25.0114095
        ]
      },
      "properties": {
        "id": 60,
        "category": "送養",
        "name": "PEPE",
        "img": "https://stylish-product.s3.ap-northeast-1.amazonaws.com/pets-images/download%20%285%29.jpg",
        "city": "新北市",
        "district": "板橋區"
      }
    },
    {
      "type": "Feature",
      "geometry": {
        "type": "Point",
        "coordinates": [
          121.4618415,
          25.0114095
        ]
      },
      "properties": {
        "id": 61,
        "category": "送養",
        "name": "PEPE",
        "img": "https://stylish-product.s3.ap-northeast-1.amazonaws.com/pets-images/download%20%285%29.jpg",
        "city": "新北市",
        "district": "板橋區"
      }
    },
    {
      "type": "Feature",
      "geometry": {
        "type": "Point",
        "coordinates": [
          121.7822278,
          25.1284336
        ]
      },
      "properties": {
        "id": 62,
        "category": "送養",
        "name": "tita",
        "img": "https://stylish-product.s3.amazonaws.com/pets-images/cat.png",
        "city": "基隆市",
        "district": "信義區"
      }
    },
    {
      "type": "Feature",
      "geometry": {
        "type": "Point",
        "coordinates": [
          121.7822278,
          25.1284336
        ]
      },
      "properties": {
        "id": 63,
        "category": "送養",
        "name": "tita",
        "img": "https://stylish-product.s3.ap-northeast-1.amazonaws.com/pets-images/cat.png",
        "city": "基隆市",
        "district": "信義區"
      }
    },
    {
      "type": "Feature",
      "geometry": {
        "type": "Point",
        "coordinates": [
          121.5198716,
          25.0421407
        ]
      },
      "properties": {
        "id": 64,
        "category": "送養",
        "name": "yes",
        "img": "https://stylish-product.s3.ap-northeast-1.amazonaws.com/pets-images/dog-bowl.png",
        "city": "臺北市",
        "district": "中正區"
      }
    },
    {
      "type": "Feature",
      "geometry": {
        "type": "Point",
        "coordinates": [
          121.5198716,
          25.0421407
        ]
      },
      "properties": {
        "id": 65,
        "category": "送養",
        "name": "yes",
        "img": "https://stylish-product.s3.ap-northeast-1.amazonaws.com/pets-images/dog-bowl.png",
        "city": "臺北市",
        "district": "中正區"
      }
    },
    {
      "type": "Feature",
      "geometry": {
        "type": "Point",
        "coordinates": [
          121.5198716,
          25.0421407
        ]
      },
      "properties": {
        "id": 66,
        "category": "送養",
        "name": "yes",
        "img": "https://stylish-product.s3.ap-northeast-1.amazonaws.com/pets-images/dog-bowl.png",
        "city": "臺北市",
        "district": "中正區"
      }
    },
    {
      "type": "Feature",
      "geometry": {
        "type": "Point",
        "coordinates": [
          121.7391833,
          25.1276033
        ]
      },
      "properties": {
        "id": 67,
        "category": "送養",
        "name": "ff",
        "img": "https://stylish-product.s3.ap-northeast-1.amazonaws.com/pets-images/shelter.png",
        "city": "基隆市",
        "district": ""
      }
    },
    {
      "type": "Feature",
      "geometry": {
        "type": "Point",
        "coordinates": [
          121.7391833,
          25.1276033
        ]
      },
      "properties": {
        "id": 68,
        "category": "送養",
        "name": "ff",
        "img": "https://stylish-product.s3.ap-northeast-1.amazonaws.com/pets-images/shelter.png",
        "city": "基隆市",
        "district": ""
      }
    },
    {
      "type": "Feature",
      "geometry": {
        "type": "Point",
        "coordinates": [
          121.7391833,
          25.1276033
        ]
      },
      "properties": {
        "id": 69,
        "category": "送養",
        "name": "ff",
        "img": "https://stylish-product.s3.ap-northeast-1.amazonaws.com/pets-images/shelter.png",
        "city": "基隆市",
        "district": ""
      }
    },
    {
      "type": "Feature",
      "geometry": {
        "type": "Point",
        "coordinates": [
          121.5427093,
          25.0792018
        ]
      },
      "properties": {
        "id": 70,
        "category": "送養",
        "name": "jeworj",
        "img": "https://stylish-product.s3.amazonaws.com/pets-images/alert.png",
        "city": "臺北市",
        "district": "中山區"
      }
    },
    {
      "type": "Feature",
      "geometry": {
        "type": "Point",
        "coordinates": [
          121.5427093,
          25.0792018
        ]
      },
      "properties": {
        "id": 71,
        "category": "送養",
        "name": "我",
        "img": "https://stylish-product.s3.ap-northeast-1.amazonaws.com/pets-images/adoption.png",
        "city": "臺北市",
        "district": "中山區"
      }
    },
    {
      "type": "Feature",
      "geometry": {
        "type": "Point",
        "coordinates": [
          121.5198716,
          25.0421407
        ]
      },
      "properties": {
        "id": 72,
        "category": "送養",
        "name": "34243",
        "img": "https://stylish-product.s3.amazonaws.com/pets-images/adoption.png",
        "city": "臺北市",
        "district": "中正區"
      }
    },
    {
      "type": "Feature",
      "geometry": {
        "type": "Point",
        "coordinates": [
          121.7451927,
          25.1187161
        ]
      },
      "properties": {
        "id": 73,
        "category": "送養",
        "name": "99",
        "img": "https://stylish-product.s3.ap-northeast-1.amazonaws.com/pets-images/dog-bowl.png",
        "city": "基隆市",
        "district": "仁愛區"
      }
    },
    {
      "type": "Feature",
      "geometry": {
        "type": "Point",
        "coordinates": [
          121.7391833,
          25.1276033
        ]
      },
      "properties": {
        "id": 74,
        "category": "送養",
        "name": "===",
        "img": "https://stylish-product.s3.ap-northeast-1.amazonaws.com/pets-images/adoption.png",
        "city": "基隆市",
        "district": ""
      }
    },
    {
      "type": "Feature",
      "geometry": {
        "type": "Point",
        "coordinates": [
          121.7451927,
          25.1187161
        ]
      },
      "properties": {
        "id": 75,
        "category": "送養",
        "name": "124",
        "img": "https://stylish-product.s3.ap-northeast-1.amazonaws.com/pets-images/adoption-header.png",
        "city": "基隆市",
        "district": "仁愛區"
      }
    },
    {
      "type": "Feature",
      "geometry": {
        "type": "Point",
        "coordinates": [
          121.5113064,
          25.0627243
        ]
      },
      "properties": {
        "id": 76,
        "category": "送養",
        "name": "mimi",
        "img": "https://stylish-product.s3.amazonaws.com/pets-images/download%20%286%29.jpg",
        "city": "臺北市",
        "district": "大同區"
      }
    }
  ]
}