{
  "type": "FeatureCollection",
  "features": [
    {
      "type": "Feature",
      "geometry": {
        "type": "Point",
        "coordinates": [
          121.5113064,
          25.0627243
        ]
      },
      "properties": {
        "id": 145,
        "category": "送養",
        "name": "天天",
        "img": "https://petto.s3.ap-northeast-1.amazonaws.com/pets-images/lala.jpg",
        "city": "臺北市",
        "district": "大同區"
      }
    },
    {
      "type": "Feature",
      "geometry": {
        "type": "Point",
        "coordinates": [
          120.9474747,
          24.8238676
        ]
      },
      "properties": {
        "id": 146,
        "category": "送養",
        "name": "米米",
        "img": "https://stylish-product.s3.ap-northeast-1.amazonaws.com/pets-images/download%20%283%29.jpg",
        "city": "新竹市",
        "district": "北區"
      }
    },
    {
      "type": "Feature",
      "geometry": {
        "type": "Point",
        "coordinates": [
          121.2053963,
          24.8444927
        ]
      },
      "properties": {
        "id": 147,
        "category": "送養",
        "name": "HaHa",
        "img": "https://stylish-product.s3.amazonaws.com/pets-images/download%20%281%29.jpg",
        "city": "桃園市",
        "district": "龍潭區"
      }
    },
    {
      "type": "Feature",
      "geometry": {
        "type": "Point",
        "coordinates": [
          121.5841779,
          23.9732022
        ]
      },
      "properties": {
        "id": 152,
        "category": "送養",
        "name": "NONO",
        "img": "https://stylish-product.s3.amazonaws.com/pets-images/4cc9e6e931c39552ea2b30b729dd69de.jpg",
        "city": "花蓮縣",
        "district": "吉安鄉"
      }
    },
    {
      "type": "Feature",
      "geometry": {
        "type": "Point",
        "coordinates": [
          121.7696964,
          24.8214206
        ]
      },
      "properties": {
        "id": 153,
        "category": "走失",
        "name": "豆豆",
        "img": "https://stylish-product.s3.amazonaws.com/pets-images/download%20%288%29.jpg",
        "city": "宜蘭縣",
        "district": "礁溪鄉"
      }
    },
    {
      "type": "Feature",
      "geometry": {
        "type": "Point",
        "coordinates": [
          121.2178048,
          24.9491274
        ]
      },
      "properties": {
        "id": 154,
        "category": "拾獲",
        "name": "米米",
        "img": "https://stylish-product.s3.amazonaws.com/pets-images/download%20%289%29.jpg",
        "city": "桃園市",
        "district": "平鎮區"
      }
    },
    {
      "type": "Feature",
      "geometry": {
        "type": "Point",
        "coordinates": [
          121.822098,
          25.103052
        ]
      },
      "properties": {
        "id": 155,
        "category": "送養",
        "name": "Shine",
        "img": "https://stylish-product.s3.amazonaws.com/pets-images/download%20%2810%29.jpg",
        "city": "新北市",
        "district": "瑞芳區"
      }
    },
    {
      "type": "Feature",
      "geometry": {
        "type": "Point",
        "coordinates": [
          120.6084832,
          24.1471183
        ]
      },
      "properties": {
        "id": 156,
        "category": "走失",
        "name": "TIETIE",
        "img": "https://stylish-product.s3.amazonaws.com/pets-images/images.jpg",
        "city": "台中市",
        "district": "南屯區"
      }
    }
  ]
}